{"html_attributions": [], "next_page_token": "AUc7tXW1EZUarVpj4QFf-VzeO9s8ivMCIA3rsX-7PpT26z9HRu7Hq-l1qZz8KnhkYX5Q6LOyw77w0MB1-ukwqaDZqdRuQHMOz5KDIrCqUjPtLmaKhVVjJ_gmGdQf9pybM6kYjIENJmyYqybI0bOtJgAX416yw3j6XzpmqrMSCffYIKHg2E9MtVkHoT4BiqwX7S_WsAaJYiS63rW6cBHfOlPsR0G6tqMXaDHKjHlqH5_7PL7q2vNSQ-NVzwdUsgi0orOVwroU8WSH9ke97L6bLF6u1iN-QeuNOYy0ieJ5-vZyeiHEDo3y7-lRJB-tCcszpLIT8rxAn6Sq_5TVigbPn5y4IbAIMqkWH54X-NFKsiPhh8Iqk5KeBJCGnoR1aMyxXvLKOOnvKk05wRxKMqCy6GRPlTHrdukiiqrbzAhxxLq1QpOc", "results": [{"geometry": {"location": {"lat": 4.600073421351611, "lng": -74.0717918446467}, "viewport": {"northeast": {"lat": 4.601425130291502, "lng": -74.07044716970847}, "southwest": {"lat": 4.598727169708498, "lng": -74.0731451302915}}}, "icon": "https://maps.gstatic.com/mapfiles/place_api/icons/v1/png_71/geocode-71.png", "icon_background_color": "#7B9EB0", "icon_mask_base_uri": "https://maps.gstatic.com/mapfiles/place_api/icons/v2/generic_pinlet", "name": "Cra. 5 #12c-85 a 12c-1", "place_id": "ChIJx1M0mqaZP44RvZXjDsky7_w", "reference": "ChIJx1M0mqaZP44RvZXjDsky7_w", "scope": "GOOGLE", "types": ["route"], "vicinity": "La Candelaria"}, {"business_status": "OPERATIONAL", "geometry": {"location": {"lat": 4.600295199999999, "lng": -74.0712428}, "viewport": {"northeast": {"lat": 4.601705330291502, "lng": -74.06988921970849}, "southwest": {"lat": 4.599007369708497, "lng": -74.07258718029149}}}, "icon": "https://maps.gstatic.com/mapfiles/place_api/icons/v1/png_71/generic_business-71.png", "icon_background_color": "#7B9EB0", "icon_mask_base_uri": "https://maps.gstatic.com/mapfiles/place_api/icons/v2/generic_pinlet", "name": "BD Promotores", "opening_hours": {"open_now": true}, "place_id": "ChIJE_XhAo6aP44RPUldPml-RpY", "plus_code": {"global_code": "67P7JW2H+4G"}, "reference": "ChIJE_XhAo6aP44RPUldPml-RpY", "scope": "GOOGLE", "types": ["general_contractor", "point_of_interest", "establishment"], "vicinity": "Avenida Jimenez de Quesada #4-77"}, {"business_status": "OPERATIONAL", "geometry": {"location": {"lat": 4.600313799999999, "lng": -74.0712839}, "viewport": {"northeast": {"lat": 4.601717130291502, "lng": -74.06992681970848}, "southwest": {"lat": 4.599019169708497, "lng": -74.0726247802915}}}, "icon": "https://maps.gstatic.com/mapfiles/place_api/icons/v1/png_71/museum-71.png", "icon_background_color": "#13B5C7", "icon_mask_base_uri": "https://maps.gstatic.com/mapfiles/place_api/icons/v2/museum_pinlet", "name": "Museo Fundaci\u00f3n Social", "photos": [{"height": 2252, "html_attributions": ["<a href=\"https://maps.google.com/maps/contrib/113743212563820092719\">Miguel Ledesma</a>"], "photo_reference": "AUc7tXXgFKP2SCeUfFjrgUJT9IRKtUP_W5TtABquAVkskW3fcVMVYOYpZ8_CV-ZFkMFYimYTv1mi2BCGSdx0yBcT_RCAfWNtS-NG_jj3_0GWzuVSjU-ZWLRehruSrPWph_1edWTWka7h69IyedvvR81uiqHzblwo-1zWUTkpXuQ6M_EL9sEf", "width": 4000}], "place_id": "ChIJSfaLH6SZP44RdDvtJi9wHj4", "plus_code": {"global_code": "67P7JW2H+4F"}, "rating": 4.8, "reference": "ChIJSfaLH6SZP44RdDvtJi9wHj4", "scope": "GOOGLE", "types": ["museum", "point_of_interest", "establishment"], "user_ratings_total": 24, "vicinity": "Avenida Jimenez de Quesada #4-99"}, {"business_status": "OPERATIONAL", "geometry": {"location": {"lat": 4.6005346, "lng": -74.0712411}, "viewport": {"northeast": {"lat": 4.601917180291503, "lng": -74.06988566970848}, "southwest": {"lat": 4.599219219708498, "lng": -74.07258363029149}}}, "icon": "https://maps.gstatic.com/mapfiles/place_api/icons/v1/png_71/generic_business-71.png", "icon_background_color": "#7B9EB0", "icon_mask_base_uri": "https://maps.gstatic.com/mapfiles/place_api/icons/v2/generic_pinlet", "name": "Vigar Colombia", "photos": [{"height": 4000, "html_attributions": ["<a href=\"https://maps.google.com/maps/contrib/110644782600419580495\">Benjamin Clements</a>"], "photo_reference": "AUc7tXXq8EeTuTR8y1Jp14ZtbhQwtX5x3UhKvIwnDHQGJI6sIPQzX5EngjhmYPMmZ1Cf6KwuG4jLp5ZO5AwX7KvgjNZZJFs-kvDKdajLan_7iwPXPfOmcpMyOVsSl91psrxeQF0H8wmIc3EVpaHC6jfxrYrT9KbaeOr5C2ycC5kGP53qIQI", "width": 3000}], "place_id": "ChIJL6xiH6SZP44R_BsnqjBwpY0", "plus_code": {"global_code": "67P7JW2H+6G"}, "reference": "ChIJL6xiH6SZP44R_BsnqjBwpY0", "scope": "GOOGLE", "types": ["point_of_interest", "establishment"], "vicinity": "a 4-99, Avenida Jimenez de Quesada #4-57"}, {"business_status": "OPERATIONAL", "geometry": {"location": {"lat": 4.6002699, "lng": -74.0709165}, "viewport": {"northeast": {"lat": 4.601672980291502, "lng": -74.06955381970849}, "southwest": {"lat": 4.598975019708497, "lng": -74.07225178029151}}}, "icon": "https://maps.gstatic.com/mapfiles/place_api/icons/v1/png_71/generic_business-71.png", "icon_background_color": "#7B9EB0", "icon_mask_base_uri": "https://maps.gstatic.com/mapfiles/place_api/icons/v2/generic_pinlet", "name": "Calle del Molino", "photos": [{"height": 4032, "html_attributions": ["<a href=\"https://maps.google.com/maps/contrib/111792207866503290028\">Wim Van de Water</a>"], "photo_reference": "AUc7tXXbZ4-RXSPIU_ZmtGgn1BMGcV-brx-OuwGcpV6TObXiwuDLKbOC6LKgd54gAR5oyejhss02Nip6GWUQm1nNgDKUCRCQJ_uOJoAiZR1HR_D9MPYAqGEv97z-OCB1Z9E9rCK4hG9QdSbHwBikytPKRxCw_l-_azNyoJKPCypzt0_Sf4CW", "width": 3024}], "place_id": "ChIJ8VkXIaSZP44REXKFOGT2vrM", "plus_code": {"global_code": "67P7JW2H+4J"}, "reference": "ChIJ8VkXIaSZP44REXKFOGT2vrM", "scope": "GOOGLE", "types": ["point_of_interest", "establishment"], "vicinity": "Colombia"}, {"business_status": "OPERATIONAL", "geometry": {"location": {"lat": 4.6002464, "lng": -74.0712506}, "viewport": {"northeast": {"lat": 4.601680880291503, "lng": -74.0698926697085}, "southwest": {"lat": 4.598982919708498, "lng": -74.0725906302915}}}, "icon": "https://maps.gstatic.com/mapfiles/place_api/icons/v1/png_71/bar-71.png", "icon_background_color": "#FF9E67", "icon_mask_base_uri": "https://maps.gstatic.com/mapfiles/place_api/icons/v2/bar_pinlet", "name": "Birmingham pub", "opening_hours": {"open_now": true}, "photos": [{"height": 1840, "html_attributions": ["<a href=\"https://maps.google.com/maps/contrib/116689095746879649613\">Birmingham pub</a>"], "photo_reference": "AUc7tXVRtIGW6HMe06xgGLwB2vI7GCd-ISAIt7djXlKS4bAreQcw3J1PHlBaM4-q6NGIQlDFutI28HUm2-UML9_obxwDN6obdxuMk_ACEjC4TnuSrt2C6RCSdwZY40zEpRwMGBfRzKd186o40-kTCy6LwSi4kgfnM4ZgCofKtqFV6XrgsUGy", "width": 4000}], "place_id": "ChIJr3LtYBiZP44R_4ivjAdGFnA", "plus_code": {"global_code": "67P7JW2H+3F"}, "rating": 5, "reference": "ChIJr3LtYBiZP44R_4ivjAdGFnA", "scope": "GOOGLE", "types": ["bar", "restaurant", "food", "point_of_interest", "establishment"], "user_ratings_total": 5, "vicinity": "Avenida Jimenez de Quesada #04-86"}, {"business_status": "OPERATIONAL", "geometry": {"location": {"lat": 4.6002464, "lng": -74.0712506}, "viewport": {"northeast": {"lat": 4.601680880291503, "lng": -74.0698926697085}, "southwest": {"lat": 4.598982919708498, "lng": -74.0725906302915}}}, "icon": "https://maps.gstatic.com/mapfiles/place_api/icons/v1/png_71/generic_business-71.png", "icon_background_color": "#7B9EB0", "icon_mask_base_uri": "https://maps.gstatic.com/mapfiles/place_api/icons/v2/generic_pinlet", "name": "Corporacion Somos Centro", "place_id": "ChIJ__9znqaZP44RggpdR4PP09w", "plus_code": {"global_code": "67P7JW2H+3F"}, "reference": "ChIJ__9znqaZP44RggpdR4PP09w", "scope": "GOOGLE", "types": ["point_of_interest", "establishment"], "vicinity": "Centro Internacional de Bogot\u00e1, Avenida Jimenez de Quesada #4 77"}, {"business_status": "OPERATIONAL", "geometry": {"location": {"lat": 4.6002464, "lng": -74.0712506}, "viewport": {"northeast": {"lat": 4.601680880291503, "lng": -74.0698926697085}, "southwest": {"lat": 4.598982919708498, "lng": -74.0725906302915}}}, "icon": "https://maps.gstatic.com/mapfiles/place_api/icons/v1/png_71/generic_business-71.png", "icon_background_color": "#13B5C7", "icon_mask_base_uri": "https://maps.gstatic.com/mapfiles/place_api/icons/v2/generic_pinlet", "name": "Lobby :a:", "photos": [{"height": 1367, "html_attributions": ["<a href=\"https://maps.google.com/maps/contrib/102402313543892085985\">Fabian Martinez</a>"], "photo_reference": "AUc7tXWhD5Qlf6-cpxeYlcxt9Ak1XMAGtvO26A_QGr-sKojw_hsxRbCZw8Q45Hv1RcuRAAjII4FQA3NyoRhpW9nka277CiY9wEcZggequ9FvWgbzckpfyVtjNaaKUH6EbH7IzqRp_8bxdE3u-BS3BSN_ArTsEiziAgzL51mzc6NRSyCbBA3R", "width": 2048}], "place_id": "ChIJKeRjz7aZP44REi5HLevLhTU", "plus_code": {"global_code": "67P7JW2H+3F"}, "reference": "ChIJKeRjz7aZP44REi5HLevLhTU", "scope": "GOOGLE", "types": ["point_of_interest", "establishment"], "vicinity": "Avenida Jimenez de Quesada #4-77"}, {"business_status": "OPERATIONAL", "geometry": {"location": {"lat": 4.6002464, "lng": -74.0712506}, "viewport": {"northeast": {"lat": 4.601680930291502, "lng": -74.06989311970851}, "southwest": {"lat": 4.598982969708498, "lng": -74.07259108029152}}}, "icon": "https://maps.gstatic.com/mapfiles/place_api/icons/v1/png_71/generic_business-71.png", "icon_background_color": "#7B9EB0", "icon_mask_base_uri": "https://maps.gstatic.com/mapfiles/place_api/icons/v2/generic_pinlet", "name": "Voyage en Colombie", "place_id": "ChIJ__9znqaZP44Rr0RztgL7_aE", "plus_code": {"global_code": "67P7JW2H+3F"}, "reference": "ChIJ__9znqaZP44Rr0RztgL7_aE", "scope": "GOOGLE", "types": ["travel_agency", "point_of_interest", "establishment"], "vicinity": "Avenida Jimenez de Quesada #4 #49"}, {"business_status": "OPERATIONAL", "geometry": {"location": {"lat": 4.6002464, "lng": -74.0712506}, "viewport": {"northeast": {"lat": 4.601680930291502, "lng": -74.06989311970851}, "southwest": {"lat": 4.598982969708498, "lng": -74.07259108029152}}}, "icon": "https://maps.gstatic.com/mapfiles/place_api/icons/v1/png_71/generic_business-71.png", "icon_background_color": "#7B9EB0", "icon_mask_base_uri": "https://maps.gstatic.com/mapfiles/place_api/icons/v2/generic_pinlet", "name": "Observatorio para la Paz", "place_id": "ChIJ__9znqaZP44R7gnoV6c4V_w", "plus_code": {"global_code": "67P7JW2H+3F"}, "reference": "ChIJ__9znqaZP44R7gnoV6c4V_w", "scope": "GOOGLE", "types": ["point_of_interest", "establishment"], "vicinity": "Avenida Jimenez De Quesada #No 4 -49"}, {"business_status": "OPERATIONAL", "geometry": {"location": {"lat": 4.600313799999999, "lng": -74.0712839}, "viewport": {"northeast": {"lat": 4.601717230291501, "lng": -74.06992721970849}, "southwest": {"lat": 4.599019269708497, "lng": -74.07262518029151}}}, "icon": "https://maps.gstatic.com/mapfiles/place_api/icons/v1/png_71/restaurant-71.png", "icon_background_color": "#FF9E67", "icon_mask_base_uri": "https://maps.gstatic.com/mapfiles/place_api/icons/v2/restaurant_pinlet", "name": "La Cocina Bacata", "opening_hours": {"open_now": true}, "photos": [{"height": 3024, "html_attributions": ["<a href=\"https://maps.google.com/maps/contrib/104289076329139684086\">Jose Mendieta</a>"], "photo_reference": "AUc7tXVaupk3f7a9bur9zXN6-oNUxIHGH0Q-Lc9T6h0OseXBlqvZrjbTAOG1bQkF2fLyl1yfD9H1FtzIawDN6PkQMbIU-oCNhVBLrJ9n1qxcwrTd2L1xHppop5kqPX_NmogMP39QPkrX3gTN-tvmyChX7_gNEG_EVtEhXI7PVerhigXSHwCB", "width": 4032}], "place_id": "ChIJ36NSnqaZP44RnDvMZpWSp-k", "plus_code": {"global_code": "67P7JW2H+4F"}, "rating": 4.6, "reference": "ChIJ36NSnqaZP44RnDvMZpWSp-k", "scope": "GOOGLE", "types": ["restaurant", "food", "point_of_interest", "establishment"], "user_ratings_total": 12, "vicinity": "Avenida Jimenez de Quesada #4-99 a"}, {"business_status": "OPERATIONAL", "geometry": {"location": {"lat": 4.600374599999999, "lng": -74.071345}, "viewport": {"northeast": {"lat": 4.601750480291502, "lng": -74.0699883197085}, "southwest": {"lat": 4.599052519708498, "lng": -74.0726862802915}}}, "icon": "https://maps.gstatic.com/mapfiles/place_api/icons/v1/png_71/restaurant-71.png", "icon_background_color": "#FF9E67", "icon_mask_base_uri": "https://maps.gstatic.com/mapfiles/place_api/icons/v2/restaurant_pinlet", "name": "El Sabor de Lupe", "opening_hours": {"open_now": true}, "photos": [{"height": 2992, "html_attributions": ["<a href=\"https://maps.google.com/maps/contrib/116960073956538818918\">Stiven Hernandez</a>"], "photo_reference": "AUc7tXX8Y0WJj2T_PCPPsKDwjE3gPV9k2-33v7_s4JsNzS1-vUNl24qLNS6-FyRBYYUIVnylJqEWFwW8Ou4FFeaVzqRWUB5RelDMMX_6yYHErs2omrdC87OXrJ0ZnwcMzXU8V_wgzY50YESvkqxYwwrPh1Y8FmPji5-TMq_GG1I_NuRiUCX1", "width": 4000}], "place_id": "ChIJr5oZn6aZP44Rb7HZbRoT_To", "plus_code": {"global_code": "67P7JW2H+4F"}, "rating": 4.6, "reference": "ChIJr5oZn6aZP44Rb7HZbRoT_To", "scope": "GOOGLE", "types": ["restaurant", "food", "point_of_interest", "establishment"], "user_ratings_total": 213, "vicinity": "Avenida Jimenez de Quesada #4-95"}, {"business_status": "OPERATIONAL", "geometry": {"location": {"lat": 4.6003493, "lng": -74.07108579999999}, "viewport": {"northeast": {"lat": 4.601724280291502, "lng": -74.06973496970849}, "southwest": {"lat": 4.599026319708497, "lng": -74.0724329302915}}}, "icon": "https://maps.gstatic.com/mapfiles/place_api/icons/v1/png_71/generic_business-71.png", "icon_background_color": "#7B9EB0", "icon_mask_base_uri": "https://maps.gstatic.com/mapfiles/place_api/icons/v2/generic_pinlet", "name": "VPTrade", "place_id": "ChIJVZijkseZP44RcoUuYfDi5YY", "plus_code": {"global_code": "67P7JW2H+4H"}, "reference": "ChIJVZijkseZP44RcoUuYfDi5YY", "scope": "GOOGLE", "types": ["finance", "point_of_interest", "establishment"], "vicinity": "Avenida Jimenez de Quesada #4-69"}, {"business_status": "OPERATIONAL", "geometry": {"location": {"lat": 4.600126399999999, "lng": -74.0715374}, "viewport": {"northeast": {"lat": 4.601524580291501, "lng": -74.07026836970849}, "southwest": {"lat": 4.598826619708497, "lng": -74.07296633029151}}}, "icon": "https://maps.gstatic.com/mapfiles/place_api/icons/v1/png_71/generic_business-71.png", "icon_background_color": "#7B9EB0", "icon_mask_base_uri": "https://maps.gstatic.com/mapfiles/place_api/icons/v2/generic_pinlet", "name": "altamira", "place_id": "ChIJx_ChfS2ZP44RDVSwlQLasMk", "plus_code": {"global_code": "67P7JW2H+39"}, "reference": "ChIJx_ChfS2ZP44RDVSwlQLasMk", "scope": "GOOGLE", "types": ["point_of_interest", "establishment"], "vicinity": "Carrera 5 #12c-40"}, {"business_status": "OPERATIONAL", "geometry": {"location": {"lat": 4.600325199999999, "lng": -74.07103649999999}, "viewport": {"northeast": {"lat": 4.601712680291501, "lng": -74.06967896970849}, "southwest": {"lat": 4.599014719708498, "lng": -74.0723769302915}}}, "icon": "https://maps.gstatic.com/mapfiles/place_api/icons/v1/png_71/restaurant-71.png", "icon_background_color": "#FF9E67", "icon_mask_base_uri": "https://maps.gstatic.com/mapfiles/place_api/icons/v2/restaurant_pinlet", "name": "La Gloria DC Food", "opening_hours": {"open_now": true}, "photos": [{"height": 4000, "html_attributions": ["<a href=\"https://maps.google.com/maps/contrib/118150740902931682830\">Anderson England</a>"], "photo_reference": "AUc7tXVU3IllPeERJNu6SBchGgagfqgKL7KpE8O986do_eAuQ4o2UVkYLOZU6_Hdf1SD24NU5k2oDQ50oibna_PgmSkjB07n8fyMCQoTWU_tHqCashKierpvWk0lsyut7iTN1D6MCfJ-zZAV3cL9No3oU6RjfOZcJyT7zxa33PAvRiwo8aNU", "width": 2252}], "place_id": "ChIJlwPRzEWZP44R94TDhsFVm-s", "plus_code": {"global_code": "67P7JW2H+4H"}, "rating": 4.4, "reference": "ChIJlwPRzEWZP44R94TDhsFVm-s", "scope": "GOOGLE", "types": ["restaurant", "food", "point_of_interest", "establishment"], "user_ratings_total": 498, "vicinity": "Calle 12d #4-65"}, {"business_status": "OPERATIONAL", "geometry": {"location": {"lat": 4.60022, "lng": -74.07159}, "viewport": {"northeast": {"lat": 4.601593530291502, "lng": -74.07028096970849}, "southwest": {"lat": 4.598895569708498, "lng": -74.0729789302915}}}, "icon": "https://maps.gstatic.com/mapfiles/place_api/icons/v1/png_71/lodging-71.png", "icon_background_color": "#909CE1", "icon_mask_base_uri": "https://maps.gstatic.com/mapfiles/place_api/icons/v2/hotel_pinlet", "name": "Hotel Planetario", "place_id": "ChIJQ-fgm6aZP44RVDnLf1UYKXU", "plus_code": {"global_code": "67P7JW2H+39"}, "rating": 2, "reference": "ChIJQ-fgm6aZP44RVDnLf1UYKXU", "scope": "GOOGLE", "types": ["lodging", "point_of_interest", "establishment"], "user_ratings_total": 1, "vicinity": "Colombia"}, {"business_status": "OPERATIONAL", "geometry": {"location": {"lat": 4.6000996, "lng": -74.0715728}, "viewport": {"northeast": {"lat": 4.601493580291503, "lng": -74.07029696970851}, "southwest": {"lat": 4.598795619708499, "lng": -74.07299493029151}}}, "icon": "https://maps.gstatic.com/mapfiles/place_api/icons/v1/png_71/cafe-71.png", "icon_background_color": "#FF9E67", "icon_mask_base_uri": "https://maps.gstatic.com/mapfiles/place_api/icons/v2/cafe_pinlet", "name": "The Bakery-Cafe y reposteria", "opening_hours": {"open_now": true}, "photos": [{"height": 1280, "html_attributions": ["<a href=\"https://maps.google.com/maps/contrib/104546707459335764173\">The Bakery-Cafe y reposteria</a>"], "photo_reference": "AUc7tXUxVhPg20da--6fT60qjcToRHhprEsLGqSCRDqeY6uNliuLtdAFhK7me119dezsLyzTJRR6ttFMURBU0uOM7x38BlN6zJkMBH97RTHYp9LRVdVogUJrypuBKn0X-No-HgnHXfT4zETCS3sGFgGqcC9ZGMaBuJlVUEhL0-Zw-CtlkXq2", "width": 960}], "place_id": "ChIJz-mUIwaZP44RhNitNhVtlX0", "plus_code": {"global_code": "67P7JW2H+29"}, "rating": 5, "reference": "ChIJz-mUIwaZP44RhNitNhVtlX0", "scope": "GOOGLE", "types": ["cafe", "store", "food", "point_of_interest", "establishment"], "user_ratings_total": 5, "vicinity": "Carrera 5 #12C 60"}, {"business_status": "OPERATIONAL", "geometry": {"location": {"lat": 4.6005126, "lng": -74.0713409}, "viewport": {"northeast": {"lat": 4.601914980291502, "lng": -74.06998166970848}, "southwest": {"lat": 4.599217019708497, "lng": -74.07267963029149}}}, "icon": "https://maps.gstatic.com/mapfiles/place_api/icons/v1/png_71/parking-71.png", "icon_background_color": "#7B9EB0", "icon_mask_base_uri": "https://maps.gstatic.com/mapfiles/place_api/icons/v2/parking_pinlet", "name": "Parqueadero Av. Jimenez #4-67", "opening_hours": {"open_now": true}, "photos": [{"height": 1280, "html_attributions": ["<a href=\"https://maps.google.com/maps/contrib/105842525905399121963\">Nicolas Prada</a>"], "photo_reference": "AUc7tXWbsXB5rUgWQiB8usmuoTgBInN6wrFj6d4rEsTumYb8KuxtzNtuP_VCKBAWxIJ164ZdcHh6_MfOGBJ8u15RhzgUB9d_7j8SPp51biM7cUkxLhCUpQAMFjBjMDvDvlNxivWeebXXMuvotoAeGUO27RwEKacIEwxHRvbuiu9JP8GfRSBx", "width": 1074}], "place_id": "ChIJqemgo5-ZP44RfGYtK9xsUrQ", "plus_code": {"global_code": "67P7JW2H+6F"}, "rating": 4.5, "reference": "ChIJqemgo5-ZP44RfGYtK9xsUrQ", "scope": "GOOGLE", "types": ["parking", "point_of_interest", "establishment"], "user_ratings_total": 2, "vicinity": "Avenida Jimenez de Quesada #4-67"}, {"business_status": "OPERATIONAL", "geometry": {"location": {"lat": 4.6003707, "lng": -74.0715745}, "viewport": {"northeast": {"lat": 4.601717630291501, "lng": -74.07022211970848}, "southwest": {"lat": 4.599019669708498, "lng": -74.0729200802915}}}, "icon": "https://maps.gstatic.com/mapfiles/place_api/icons/v1/png_71/bar-71.png", "icon_background_color": "#FF9E67", "icon_mask_base_uri": "https://maps.gstatic.com/mapfiles/place_api/icons/v2/bar_pinlet", "name": "Cervecer\u00eda Lateral - La Candelaria", "place_id": "ChIJkxNH-dmZP44RRMt4ymQA1s8", "plus_code": {"global_code": "67P7JW2H+49"}, "rating": 2, "reference": "ChIJkxNH-dmZP44RRMt4ymQA1s8", "scope": "GOOGLE", "types": ["bar", "restaurant", "food", "point_of_interest", "establishment"], "user_ratings_total": 2, "vicinity": "Carrera 5 #71"}, {"geometry": {"location": {"lat": 4.710988599999999, "lng": -74.072092}, "viewport": {"northeast": {"lat": 4.837131061187439, "lng": -73.99197704523905}, "southwest": {"lat": 4.459464006095289, "lng": -74.22363695548903}}}, "icon": "https://maps.gstatic.com/mapfiles/place_api/icons/v1/png_71/geocode-71.png", "icon_background_color": "#7B9EB0", "icon_mask_base_uri": "https://maps.gstatic.com/mapfiles/place_api/icons/v2/generic_pinlet", "name": "Bogot\u00e1", "photos": [{"height": 2048, "html_attributions": ["Photos are copyrighted by their owners"], "photo_reference": "AUc7tXUsUi0gzQfc8cD8-WvR3kug8-idMUIOE2HwBXoBr9hBOGn8Elre1W53s4DiafOiKVj-VPeBofhIyhYJ0h93RFEAWRxWLU6JGSfoYruyGT5fNSXbX0WHvC94ucqNsX4i75d4klX6GmZBp6qtLtW5", "width": 1639}], "place_id": "ChIJKcumLf2bP44RFDmjIFVjnSM", "reference": "ChIJKcumLf2bP44RFDmjIFVjnSM", "scope": "GOOGLE", "types": ["locality", "political"], "vicinity": "Bogot\u00e1"}], "status": "OK"}